{
      "features": [
        {
          "type": "Feature",
          "geometry": {
            "type": "Point",
            "coordinates": [
              -98.51508,
              29.418455
            ]
          },
          "properties": {
           "heading":"La Veladora of Our Lady of Guadalupe ",
           "name":"Jesse Trevino",
           "avatar":"/artist/Trevino.jpg",
           "image":"/images/image2.jpg",
           "info": "https://www.getcreativesanantonio.com/Public-Art/Public-Artworks-Map/Public-Artworks-List/Public-Artwork/Article/287/La-Veladora-of-Our-Lady-of-Guadalupe",
            "address": "1315 Guadalupe St",
            "postalCode": "20037"
          }
        },
        {
          "type": "Feature",
          "geometry": {
            "type": "Point",
            "coordinates": [
              -98.534132,
              29.349889
  
            ]
          },
          "properties": {
            "heading":"Dream Song Tower ",
            "name":"Ortiz Cruz",
            "avatar":"/artist/cruz.jpg",
            "image":"/images/image3.jpg",
            "info" : "https://www.getcreativesanantonio.com/Public-Art/Public-Artworks-Map/Public-Artworks-List/Public-Artwork/Article/742/Dream-Song-Tower",
            "address": "Interstate 35 Access Rd & S Zarzamora St",
            "state": "Texas"
          }
        },
        {
          "type": "Feature",
          "geometry": {
            "type": "Point",
            "coordinates": [
              -98.487473,
              29.423029
            ]
          },
          "properties": {
           "heading":"The Torch of Friendship",
           "info" : "https://www.getcreativesanantonio.com/Public-Art/Public-Artworks-Map/Public-Artworks-List/Public-Artwork/Article/165/Torch-of-Friendship-Antorcha-de-Amistad",
           "name":"Sebastián",
           "avatar":"/artist/sebastian.jpg",
           "image":"/images/image4.jpg",
            "address": "333 Losoya Street",
            "city": "San Antonio",
            "postalCode": "20007"
          }
        },
        {
          "type": "Feature",
          "geometry": {
            "type": "Point",
            "coordinates": [
              -98.5078,
              29.4883
            ]
          },
          "properties": {
              "heading":"Crossroads of Enlightenment",
              "name":" Angel Rodríguez–Díaz",
              "avatar":"/artist/Angel.jpg",
              "image":"/images/image5.jpg",
              "info": "https://www.getcreativesanantonio.com/Public-Art/Public-Artworks-Map/Public-Artworks-List/Public-Artwork/Article/380/Crossroads-of-Enlightenment",
            "address": "4400 Blanco Road ",
            "city": "San Antonio",
            "postalCode": "78212",
            "state": "TX"
          }
        },
        {
          "type": "Feature",
          "geometry": {
            "type": "Point",
            "coordinates": [
              -98.4923019999999,
              29.4280110000001
            ]
          },
          "properties": {
            "heading":"Mosaic Murals on The River Walk",
            "name":"Oscar Alvarado",
            "avatar":"/artist/oscar.jpg",
            "image":"/images/image6.jpg",
            "info": "https://www.getcreativesanantonio.com/Public-Art/Public-Artworks-Map/Public-Artworks-List/Public-Artwork/Article/164/River-Walk-Mosaic-Murals",
            "address": "849 E Commerce",
            "city": "San Antonio",
            "postalCode": "278205",
            "state": "Texas"
          }
        },
        {
          "type": "Feature",
          "geometry": {
            "type": "Point",
            "coordinates": [
              -98.469172,
              29.341036
            ]
          },
          "properties": {
            "heading":"Pioneers of the Sky",
            "name": 
              "Collaboration",
            "image":"/images/image7.jpg",
            "avatar":"/artist/andyyvette.jpg",
            "info": "https://www.getcreativesanantonio.com/Public-Art/Public-Artworks-Map/Public-Artworks-List/Public-Artwork/Article/779/Pioneers-of-the-Sky-The-Stinson-School-of-Flying",
            "address": "8410 Mission Road",
            "cc": "US",
            "city": "San Antonio",
            "postalCode": "20814",
            "state": "TX"
          }
        },
        {
          "type": "Feature",
          "geometry": {
            "type": "Point",
            "coordinates": [
              -98.475844,
              29.428811
            ]
          },
          "properties": {
            "heading": "Powder",
            "name":"Daniel Eime",
            "avatar":"/artist/Daniel.jpg",
            "image":"/images/image8.jpg",
            "info": "https://www.getcreativesanantonio.com/Public-Art/Public-Artworks-Map/Public-Artworks-List/Public-Artwork/Article/762/Powder",
            "address": "502 Burnet St",
            "city": "San Antonio",
            "postalCode": "78214",
            "state": "Texas"
          }
        },
        {
          "type": "Feature",
          "geometry": {
            "type": "Point",
            "coordinates": [
              -98.4927359989999,
              29.4300673330001
            ]
          },
          "properties": {
              "heading":"Red Bird",
              "name":"Michael Lance",
              "avatar":"/artist/lance.jpg",
              "image":"/images/image9.jpg",
              "info": "https://www.getcreativesanantonio.com/Public-Art/Public-Artworks-Map/Public-Artworks-List/Public-Artwork/Article/284/Red-Bird",
            "address": "204 Augusta",
            "city": "San Antonio",
            "postalCode": "78205",
            "state": "TX"
          }
        },
        {
          "type": "Feature",
          "geometry": {
            "type": "Point",
            "coordinates": [
              -98.48790882268868,
              29.432922708021806
            ]
          },
          "properties": {
           "heading":"Maverick Tile Mural",
           "name":"Ethel Wilson Harris",
           "avatar":"/artist/Ethel.jpg",
           "image":"/images/image10.jpg",
           "info": "https://www.getcreativesanantonio.com/Public-Art/Public-Artworks-Map/Public-Artworks-List/Public-Artwork/Article/160/Maverick-Tile-Mural",
            "address": "Riverwalk- North of Lexington St. Bridge",
            "city": "San Antonio",
            "country": "United States",
            "postalCode": "78201",
            "state": "TX"
          }
        },
        {
          "type": "Feature",
          "geometry": {
            "type": "Point",
            "coordinates": [
              -98.483700333999,
              29.419425
            ]
          },
          "properties": {
          "heading":"Some Things I've Experienced in South Texas",
          "name":"Alex Deleon",
          "avatar":"/artist/alex.jpg",
          "image":"/images/image11.jpg",
          "info": "https://www.getcreativesanantonio.com/Public-Art/Public-Artworks-Map/Public-Artworks-List/Public-Artwork/Article/130/Some-Things-Ive-Experienced-in-South-Texas",
            "address": "600 Hemisfair Park",
            "city": "San Antonio",
            "postalCode": "78205",
            "state": "TX"
          }
        },
        {
          "type": "Feature",
          "geometry": {
            "type": "Point",
            "coordinates": [
              -98.504280,
              29.461158
            ]
          },
          "properties": {
          "heading":"Canopy",
          "name":"Joey Fauerso",
          "avatar":"/artist/fauerso.jpg",
          "image":"/images/image12.jpg",
          "info": "https://www.getcreativesanantonio.com/Public-Art/Public-Artworks-Map/Public-Artworks-List/Public-Artwork/Article/721/Canopy",
            "address": "729 Fulton Ave",
            "city": "San Antonio",
            "crossStreet": "at 19th St",
            "postalCode": "78212",
            "state": "TX"
          }
        },
        {
          "type": "Feature",
          "geometry": {
            "type": "Point",
            "coordinates": [
              -98.497456,
              29.429442
            ]
          },
          "properties": {
            "heading":"De Todos Caminos Somos Todos Uno",
            "name":"ADRIANA M. GARCIA",
            "avatar":"/artist/adriana.jpg",
            "phoneFormatted": "(210) 354-3775",
            "address": "Between Santa Rosa Avenue and Martin Street",
            "image":"/images/image13.jpg",
            "info": "https://www.americansforthearts.org/by-program/networks-and-councils/public-art-network/public-art-year-in-review-database/de-todos-caminos-somos-todos-uno",
            "city": "San Antonio",
            "postalCode": "78210",
            "state": "Texas"
          }
        },
        {
          "type": "Feature",
          "geometry": {
            "type": "Point",
            "coordinates": [
              -98.48887401896664,
              29.427281690831375
            ]
          },
          "properties": {
            "heading":"The Last Parade",
            "name":"Rudy Herrera",
            "avatar":"/artist/rudyH.jpg",
            "address": "229 E Houston St",
            "image":"/images/image14.jpg",
            "info": "#",
            "city": "San Antonio",
            "postalCode": "78205",
            "state": "Texas"
          }
        },
        {
          "type": "Feature",
          "geometry": {
            "type": "Point",
            "coordinates": [
              -98.39449279103972,
              29.397867915768376
            ]
          },
          "properties": {
            "heading":"El Rey",
            "name":"Colton Valentine",
            "avatar":"/artist/Colton.jpg",
            "address": "4930 Rigsby Avenue",
            "image":"/images/image15.jpg",
            "info": "https://www.instagram.com/colton_valentine_/?hl=en",
            "city": "San Antonio",
            "postalCode": "78205",
            "state": "Texas"
          }
        },
        {
          "type": "Feature",
          "geometry": {
            "type": "Point",
            "coordinates": [
              -98.41213660061439,
              29.55534823658726
            ]
          },
          "properties": {
            "heading":"Songbirds of San Antonio",
            "name":"Dixie Friend-Gay",
            "avatar":"/artist/gay.jpg",
            "address": "4135 Thousand Oaks Dr",
            "image":"/images/image16.jpg",
            "info": "https://www.dixiefriendgay.com/gallery-san-antonio-songbirds",
            "city": "San Antonio",
            "postalCode": "78217",
            "state": "Texas"
          }
        }
      ]
}
        